[
  {
    "action": "deliver",
    "address": "上海市市辖区长宁区上海上海市长宁区仙霞新村街道上海市 长宁区 虹桥路1889弄40号201室.",
    "area_id": "N上海P0-11",
    "id": "121.38772_31.20011_412455651910438949",
    "lat": 31.20011,
    "limit": 99,
    "lng": 121.38772,
    "order_id": "412455651910438949",
    "priority": "vip",
    "time_window": {
      "begin_time": 8.0,
      "end_time": 23.98
    },
    "volume": 0.35,
    "weight": 0
  },
  {
    "action": "deliver",
    "address": "上海市市辖区长宁区上海市 长宁区 延安西路2299号上海世贸大厦4F晟乐门诊",
    "area_id": "N上海P0-11",
    "id": "121.39984_31.20135_412346477646008342",
    "lat": 31.20135,
    "limit": 99,
    "lng": 121.39984,
    "order_id": "412346477646008342",
    "priority": "vip",
    "time_window": {
      "begin_time": 8.0,
      "end_time": 23.98
    },
    "volume": 1.4,
    "weight": 0
  },
  {
    "action": "deliver",
    "address": "上海市市辖区长宁区福泉路435弄113号101室",
    "area_id": "N上海P0-11",
    "id": "121.35814_31.20448_412455651902050338",
    "lat": 31.20448,
    "limit": 99,
    "lng": 121.35814,
    "order_id": "412455651902050338",
    "priority": "vip",
    "time_window": {
      "begin_time": 8.0,
      "end_time": 23.98
    },
    "volume": 0.69,
    "weight": 0
  },
  {
    "action": "deliver",
    "address": "上海市市辖区闵行区上海 上海市 闵行区 新虹街道申滨路1051弄爱博2村51号楼302",
    "area_id": "N上海P0-11",
    "id": "121.30572_31.20263_412455651902050313",
    "lat": 31.20263,
    "limit": 99,
    "lng": 121.30572,
    "order_id": "412455651902050313",
    "priority": "vip",
    "time_window": {
      "begin_time": 8.0,
      "end_time": 23.98
    },
    "volume": 0.35,
    "weight": 0
  },
  {
    "action": "deliver",
    "address": "上海市市辖区闵行区兴虹路50号全季酒店",
    "area_id": "N上海P0-11",
    "id": "121.31041_31.21464_412091397260791809",
    "lat": 31.21464,
    "limit": 99,
    "lng": 121.31041,
    "order_id": "412091397260791809",
    "priority": "vip",
    "time_window": {
      "begin_time": 8.0,
      "end_time": 23.98
    },
    "volume": 4.14,
    "weight": 0
  },
  {
    "action": "deliver",
    "address": "上海市市辖区闵行区上海市市辖区闵行区虹许路358号F座健身中心3楼上海希玛建筑设计有限公司，",
    "area_id": "N上海P0-11",
    "id": "121.39548_31.18144_412455651910438950",
    "lat": 31.18144,
    "limit": 99,
    "lng": 121.39548,
    "order_id": "412455651910438950",
    "priority": "vip",
    "time_window": {
      "begin_time": 8.0,
      "end_time": 23.98
    },
    "volume": 0.16,
    "weight": 0
  },
  {
    "action": "deliver",
    "address": "上海市市辖区闵行区华翔路2239号",
    "area_id": "N上海P0-11",
    "id": "121.30273_31.20417_412455651906244640",
    "lat": 31.20417,
    "limit": 99,
    "lng": 121.30273,
    "order_id": "412455651906244640",
    "priority": "vip",
    "time_window": {
      "begin_time": 8.0,
      "end_time": 23.98
    },
    "volume": 4.2,
    "weight": 0
  },
  {
    "action": "deliver",
    "address": "上海市市辖区长宁区新泾镇 青溪路770弄25号2号501",
    "area_id": "N上海P0-11",
    "id": "121.37954_31.20717_412455651902050343",
    "lat": 31.20717,
    "limit": 99,
    "lng": 121.37954,
    "order_id": "412455651902050343",
    "priority": "vip",
    "time_window": {
      "begin_time": 8.0,
      "end_time": 23.98
    },
    "volume": 0.35,
    "weight": 0
  },
  {
    "action": "deliver",
    "address": "上海市市辖区闵行区新虹街道南华街25号",
    "area_id": "N上海P0-11",
    "id": "121.32386_31.22145_412455651897856014",
    "lat": 31.22145,
    "limit": 99,
    "lng": 121.32386,
    "order_id": "412455651897856014",
    "priority": "vip",
    "time_window": {
      "begin_time": 8.0,
      "end_time": 23.98
    },
    "volume": 6.53,
    "weight": 0
  },
  {
    "action": "deliver",
    "address": "上海市市辖区长宁区上海市长宁区金钟路333弄95号502室",
    "area_id": "N上海P0-11",
    "id": "121.36366_31.21895_412455651897856016",
    "lat": 31.21895,
    "limit": 99,
    "lng": 121.36366,
    "order_id": "412455651897856016",
    "priority": "vip",
    "time_window": {
      "begin_time": 8.0,
      "end_time": 23.98
    },
    "volume": 0.12,
    "weight": 0
  },
  {
    "action": "deliver",
    "address": "上海市市辖区闵行区上海上海市闵行区虹桥镇姚虹路299弄恒盛苑20栋1701室",
    "area_id": "N上海P0-11",
    "id": "121.40839_31.19052_412455651902050331",
    "lat": 31.19052,
    "limit": 99,
    "lng": 121.40839,
    "order_id": "412455651902050331",
    "priority": "vip",
    "time_window": {
      "begin_time": 8.0,
      "end_time": 23.98
    },
    "volume": 0.31,
    "weight": 0
  },
  {
    "action": "deliver",
    "address": "上海市市辖区长宁区上海上海市长宁区仙霞新村街道上海市 长宁区 虹桥路1889弄40号201室.",
    "area_id": "N上海P0-11",
    "id": "121.38772_31.20011_412455651910438930",
    "lat": 31.20011,
    "limit": 99,
    "lng": 121.38772,
    "order_id": "412455651910438930",
    "priority": "vip",
    "time_window": {
      "begin_time": 8.0,
      "end_time": 23.98
    },
    "volume": 0.35,
    "weight": 0
  },
  {
    "action": "deliver",
    "address": "上海市市辖区长宁区通协路278弄8号101-2室",
    "area_id": "N上海P0-11",
    "id": "121.35465_31.22752_412455651906244643",
    "lat": 31.22752,
    "limit": 99,
    "lng": 121.35465,
    "order_id": "412455651906244643",
    "priority": "vip",
    "time_window": {
      "begin_time": 8.0,
      "end_time": 23.98
    },
    "volume": 1.0,
    "weight": 0
  },
  {
    "action": "deliver",
    "address": "上海市市辖区闵行区上海 上海市 闵行区 新虹街道申滨路1051弄爱博2村52号楼1101",
    "area_id": "N上海P0-11",
    "id": "121.30572_31.20263_412455651897856007",
    "lat": 31.20263,
    "limit": 99,
    "lng": 121.30572,
    "order_id": "412455651897856007",
    "priority": "vip",
    "time_window": {
      "begin_time": 8.0,
      "end_time": 23.98
    },
    "volume": 0.35,
    "weight": 0
  },
  {
    "action": "deliver",
    "address": "上海市市辖区长宁区 程家桥街道迎宾六路38号",
    "area_id": "N上海P0-11",
    "id": "121.34792_31.18940_412455651906244621",
    "lat": 31.18940,
    "limit": 99,
    "lng": 121.34792,
    "order_id": "412455651906244621",
    "priority": "vip",
    "time_window": {
      "begin_time": 8.0,
      "end_time": 23.98
    },
    "volume": 0.3,
    "weight": 0
  },
  {
    "action": "deliver",
    "address": "上海市市辖区闵行区莘庄镇七莘路652号兴城商务广场a座802室",
    "area_id": "N上海P0-22",
    "id": "121.37325_31.11969_412455651910438938",
    "lat": 31.11969,
    "limit": 99,
    "lng": 121.37325,
    "order_id": "412455651910438938",
    "priority": "vip",
    "time_window": {
      "begin_time": 8.0,
      "end_time": 23.98
    },
    "volume": 0.43,
    "weight": 0
  },
  {
    "action": "deliver",
    "address": "上海市市辖区闵行区上海 上海市 闵行区 莘庄镇 莘庄镇上海市闵行区山花路65弄16号701室;13901939199",
    "area_id": "N上海P0-22",
    "id": "121.38304_31.12012_412455651897856010",
    "lat": 31.12012,
    "limit": 99,
    "lng": 121.38304,
    "order_id": "412455651897856010",
    "priority": "vip",
    "time_window": {
      "begin_time": 8.0,
      "end_time": 23.98
    },
    "volume": 1.01,
    "weight": 0
  },
  {
    "action": "deliver",
    "address": "上海市市辖区闵行区上海市-市辖区-闵行区",
    "area_id": "N上海P0-22",
    "id": "121.38170_31.11281_412455651902050332",
    "lat": 31.11281,
    "limit": 99,
    "lng": 121.38170,
    "order_id": "412455651902050332",
    "priority": "vip",
    "time_window": {
      "begin_time": 8.0,
      "end_time": 23.98
    },
    "volume": 2.6,
    "weight": 0
  },
  {
    "action": "deliver",
    "address": "上海市市辖区闵行区闵行区都会路1999号晶碧科技园区G栋1楼西",
    "area_id": "N上海P0-22",
    "id": "121.41853_31.06614_412455651897856004",
    "lat": 31.06614,
    "limit": 99,
    "lng": 121.41853,
    "order_id": "412455651897856004",
    "priority": "vip",
    "time_window": {
      "begin_time": 8.0,
      "end_time": 23.98
    },
    "volume": 0.01,
    "weight": 0
  },
  {
    "action": "deliver",
    "address": "上海市市辖区闵行区莘庄镇富都路111弄23号1002",
    "area_id": "N上海P0-22",
    "id": "121.38984_31.10210_412455651902050344",
    "lat": 31.10210,
    "limit": 99,
    "lng": 121.38984,
    "order_id": "412455651902050344",
    "priority": "vip",
    "time_window": {
      "begin_time": 8.0,
      "end_time": 23.98
    },
    "volume": 0.35,
    "weight": 0
  },
  {
    "action": "deliver",
    "address": "上海市市辖区闵行区沁春路715号",
    "area_id": "N上海P0-22",
    "id": "121.36982_31.09262_412455651902050307",
    "lat": 31.09262,
    "limit": 99,
    "lng": 121.36982,
    "order_id": "412455651902050307",
    "priority": "vip",
    "time_window": {
      "begin_time": 8.0,
      "end_time": 23.98
    },
    "volume": 1.36,
    "weight": 0
  },
  {
    "action": "deliver",
    "address": "上海市市辖区闵行区莘庄镇春申路3758弄凯利大楼1号楼1203",
    "area_id": "N上海P0-22",
    "id": "121.38699_31.10071_412455651906244626",
    "lat": 31.10071,
    "limit": 99,
    "lng": 121.38699,
    "order_id": "412455651906244626",
    "priority": "vip",
    "time_window": {
      "begin_time": 8.0,
      "end_time": 23.98
    },
    "volume": 1.3,
    "weight": 0
  },
  {
    "action": "deliver",
    "address": "上海市市辖区松江区上海市松江区车墩镇李高路495号",
    "area_id": "N上海P0-23",
    "id": "121.31449_31.02262_412455651897856002",
    "lat": 31.02262,
    "limit": 99,
    "lng": 121.31449,
    "order_id": "412455651897856002",
    "priority": "vip",
    "time_window": {
      "begin_time": 8.0,
      "end_time": 23.98
    },
    "volume": 0.01,
    "weight": 0
  },
  {
    "action": "deliver",
    "address": "上海市市辖区松江区上海市松江书林路751号8栋5楼",
    "area_id": "N上海P0-23",
    "id": "121.31270_31.04181_412455651906244610",
    "lat": 31.04181,
    "limit": 99,
    "lng": 121.31270,
    "order_id": "412455651906244610",
    "priority": "vip",
    "time_window": {
      "begin_time": 8.0,
      "end_time": 23.98
    },
    "volume": 12.5,
    "weight": 0
  },
  {
    "action": "deliver",
    "address": "上海市市辖区松江区送货地址：上海市松江区李高路495号",
    "area_id": "N上海P0-23",
    "id": "121.31449_31.02262_412455651897856003",
    "lat": 31.02262,
    "limit": 99,
    "lng": 121.31449,
    "order_id": "412455651897856003",
    "priority": "vip",
    "time_window": {
      "begin_time": 8.0,
      "end_time": 23.98
    },
    "volume": 0.01,
    "weight": 0
  },
  {
    "action": "deliver",
    "address": "上海市市辖区松江区新桥镇新飞路与书慧路交叉口向东50米",
    "area_id": "N上海P0-23",
    "id": "121.31781_31.03781_412091397281763330",
    "lat": 31.03781,
    "limit": 99,
    "lng": 121.31781,
    "order_id": "412091397281763330",
    "priority": "vip",
    "time_window": {
      "begin_time": 8.0,
      "end_time": 23.98
    },
    "volume": 0.12,
    "weight": 0
  },
  {
    "action": "deliver",
    "address": "上海市市辖区松江区上海松江区新桥镇春九路88弄乔爱别墅303号",
    "area_id": "N上海P0-23",
    "id": "121.35854_31.08668_412455651902050326",
    "lat": 31.08668,
    "limit": 99,
    "lng": 121.35854,
    "order_id": "412455651902050326",
    "priority": "vip",
    "time_window": {
      "begin_time": 8.0,
      "end_time": 23.98
    },
    "volume": 0.54,
    "weight": 0
  },
  {
    "action": "deliver",
    "address": "上海市市辖区松江区申港路2672号A2",
    "area_id": "N上海P0-23",
    "id": "121.32729_31.03754_412455651902050314",
    "lat": 31.03754,
    "limit": 99,
    "lng": 121.32729,
    "order_id": "412455651902050314",
    "priority": "vip",
    "time_window": {
      "begin_time": 8.0,
      "end_time": 23.98
    },
    "volume": 0.27,
    "weight": 0
  },
  {
    "action": "deliver",
    "address": "上海市市辖区松江区 新桥镇春九路88弄158号（乔爱别墅",
    "area_id": "N上海P0-23",
    "id": "121.35854_31.08668_412455651902050311",
    "lat": 31.08668,
    "limit": 99,
    "lng": 121.35854,
    "order_id": "412455651902050311",
    "priority": "vip",
    "time_window": {
      "begin_time": 8.0,
      "end_time": 23.98
    },
    "volume": 0.43,
    "weight": 0
  },
  {
    "action": "deliver",
    "address": "上海市市辖区松江区申港路215号219室",
    "area_id": "N上海P0-23",
    "id": "121.35304_31.06882_412455651906244641",
    "lat": 31.06882,
    "limit": 99,
    "lng": 121.35304,
    "order_id": "412455651906244641",
    "priority": "vip",
    "time_window": {
      "begin_time": 8.0,
      "end_time": 23.98
    },
    "volume": 0.3,
    "weight": 0
  },
  {
    "action": "deliver",
    "address": "上海市市辖区松江区新桥镇明中路1588弄1086号1303室",
    "area_id": "N上海P0-23",
    "id": "121.32811_31.07455_412091397281763332",
    "lat": 31.07455,
    "limit": 99,
    "lng": 121.32811,
    "order_id": "412091397281763332",
    "priority": "vip",
    "time_window": {
      "begin_time": 8.0,
      "end_time": 23.98
    },
    "volume": 0.26,
    "weight": 0
  },
  {
    "action": "deliver",
    "address": "上海市市辖区松江区新加路356弄99号",
    "area_id": "N上海P0-23",
    "id": "121.31052_31.03356_412455651910438940",
    "lat": 31.03356,
    "limit": 99,
    "lng": 121.31052,
    "order_id": "412455651910438940",
    "priority": "vip",
    "time_window": {
      "begin_time": 8.0,
      "end_time": 23.98
    },
    "volume": 0.3,
    "weight": 0
  },
  {
    "action": "deliver",
    "address": "上海市市辖区松江区新桥镇新南街350弄新桥首府龙麒苑93号",
    "area_id": "N上海P0-23",
    "id": "121.31491_31.06238_412455651914633217",
    "lat": 31.06238,
    "limit": 99,
    "lng": 121.31491,
    "order_id": "412455651914633217",
    "priority": "vip",
    "time_window": {
      "begin_time": 8.0,
      "end_time": 23.98
    },
    "volume": 0.29,
    "weight": 0
  },
  {
    "action": "deliver",
    "address": "上海市市辖区徐汇区徐家汇街道南丹东路223弄2号204室",
    "area_id": "N上海P0-12",
    "id": "121.43886_31.19003_412455651906244614",
    "lat": 31.19003,
    "limit": 99,
    "lng": 121.43886,
    "order_id": "412455651906244614",
    "priority": "vip",
    "time_window": {
      "begin_time": 8.0,
      "end_time": 23.98
    },
    "volume": 0.1,
    "weight": 0
  },
  {
    "action": "deliver",
    "address": "上海市市辖区徐汇区 田林街道 华石路88弄尚汇豪庭33号楼 202室",
    "area_id": "N上海P0-12",
    "id": "121.43035_31.17974_412455651902050335",
    "lat": 31.17974,
    "limit": 99,
    "lng": 121.43035,
    "order_id": "412455651902050335",
    "priority": "vip",
    "time_window": {
      "begin_time": 8.0,
      "end_time": 23.98
    },
    "volume": 0.55,
    "weight": 0
  },
  {
    "action": "deliver",
    "address": "上海市市辖区徐汇区 徐家汇街道 徐家汇街道虹桥路168号东方曼哈顿西区6号楼3401室",
    "area_id": "N上海P0-12",
    "id": "121.43354_31.19103_412455651910438953",
    "lat": 31.19103,
    "limit": 99,
    "lng": 121.43354,
    "order_id": "412455651910438953",
    "priority": "vip",
    "time_window": {
      "begin_time": 8.0,
      "end_time": 23.98
    },
    "volume": 0.91,
    "weight": 0
  },
  {
    "action": "deliver",
    "address": "上海市市辖区徐汇区上海 上海市 徐汇区 徐家汇街道天平路320弄20号阿尔芭露滋西班牙餐厅",
    "area_id": "N上海P0-12",
    "id": "121.43925_31.19624_412455651914633218",
    "lat": 31.19624,
    "limit": 99,
    "lng": 121.43925,
    "order_id": "412455651914633218",
    "priority": "vip",
    "time_window": {
      "begin_time": 8.0,
      "end_time": 23.98
    },
    "volume": 0.15,
    "weight": 0
  },
  {
    "action": "deliver",
    "address": "上海市市辖区长宁区中山西路1440号",
    "area_id": "N上海P0-12",
    "id": "121.41783_31.19088_412455651910438928",
    "lat": 31.19088,
    "limit": 99,
    "lng": 121.41783,
    "order_id": "412455651910438928",
    "priority": "vip",
    "time_window": {
      "begin_time": 8.0,
      "end_time": 23.98
    },
    "volume": 0.1,
    "weight": 0
  },
  {
    "action": "deliver",
    "address": "上海市市辖区徐汇区龙华路1887号",
    "area_id": "N上海P0-12",
    "id": "121.45452_31.18381_412455651906244609",
    "lat": 31.18381,
    "limit": 99,
    "lng": 121.45452,
    "order_id": "412455651906244609",
    "priority": "vip",
    "time_window": {
      "begin_time": 8.0,
      "end_time": 23.98
    },
    "volume": 0.4,
    "weight": 0
  },
  {
    "action": "deliver",
    "address": "上海市市辖区徐汇区东安路271弄2号楼1803室",
    "area_id": "N上海P0-12",
    "id": "121.45500_31.19199_412455651910438915",
    "lat": 31.19199,
    "limit": 99,
    "lng": 121.45500,
    "order_id": "412455651910438915",
    "priority": "vip",
    "time_window": {
      "begin_time": 8.0,
      "end_time": 23.98
    },
    "volume": 0.4,
    "weight": 0
  },
  {
    "action": "deliver",
    "address": "上海市市辖区黄浦区五里桥街道瞿溪路501弄2号101室",
    "area_id": "N上海P0-12",
    "id": "121.48772_31.20277_412455651906244624",
    "lat": 31.20277,
    "limit": 99,
    "lng": 121.48772,
    "order_id": "412455651906244624",
    "priority": "vip",
    "time_window": {
      "begin_time": 8.0,
      "end_time": 23.98
    },
    "volume": 0.35,
    "weight": 0
  },
  {
    "action": "deliver",
    "address": "上海市市辖区黄浦区斜土路118号",
    "area_id": "N上海P0-12",
    "id": "121.48195_31.20588_412455651910438920",
    "lat": 31.20588,
    "limit": 99,
    "lng": 121.48195,
    "order_id": "412455651910438920",
    "priority": "vip",
    "time_window": {
      "begin_time": 8.0,
      "end_time": 23.98
    },
    "volume": 0.59,
    "weight": 0
  },
  {
    "action": "deliver",
    "address": "上海市市辖区徐汇区上海  上海市  徐汇区  上海徐汇区城区梅陇五村70号1703室",
    "area_id": "N上海P0-21",
    "id": "121.42118_31.13599_412455651910438913",
    "lat": 31.13599,
    "limit": 99,
    "lng": 121.42118,
    "order_id": "412455651910438913",
    "priority": "vip",
    "time_window": {
      "begin_time": 8.0,
      "end_time": 23.98
    },
    "volume": 0.3,
    "weight": 0
  },
  {
    "action": "deliver",
    "address": "上海市市辖区徐汇区龙华路2518弄盛大花园77号701",
    "area_id": "N上海P0-21",
    "id": "121.45533_31.17694_412455651906244631",
    "lat": 31.17694,
    "limit": 99,
    "lng": 121.45533,
    "order_id": "412455651906244631",
    "priority": "vip",
    "time_window": {
      "begin_time": 8.0,
      "end_time": 23.98
    },
    "volume": 0.4,
    "weight": 0
  },
  {
    "action": "deliver",
    "address": "上海市市辖区闵行区银都路218号",
    "area_id": "N上海P0-21",
    "id": "121.45296_31.10703_412346477650202642",
    "lat": 31.10703,
    "limit": 99,
    "lng": 121.45296,
    "order_id": "412346477650202642",
    "priority": "vip",
    "time_window": {
      "begin_time": 8.0,
      "end_time": 23.98
    },
    "volume": 1.03,
    "weight": 0
  },
  {
    "action": "deliver",
    "address": "上海市市辖区徐汇区三江路301弄31号602",
    "area_id": "N上海P0-21",
    "id": "121.43970_31.16489_412455651902050327",
    "lat": 31.16489,
    "limit": 99,
    "lng": 121.43970,
    "order_id": "412455651902050327",
    "priority": "vip",
    "time_window": {
      "begin_time": 8.0,
      "end_time": 23.98
    },
    "volume": 0.4,
    "weight": 0
  },
  {
    "action": "deliver",
    "address": "上海市市辖区徐汇区漕河泾街道龙漕路200弄100号龙华湾酒店公寓B208",
    "area_id": "N上海P0-21",
    "id": "121.44291_31.16658_412455651910438936",
    "lat": 31.16658,
    "limit": 99,
    "lng": 121.44291,
    "order_id": "412455651910438936",
    "priority": "vip",
    "time_window": {
      "begin_time": 8.0,
      "end_time": 23.98
    },
    "volume": 0.12,
    "weight": 0
  },
  {
    "action": "deliver",
    "address": "上海市市辖区徐汇区东漕河泾路55号",
    "area_id": "N上海P0-21",
    "id": "121.43588_31.16537_412455651906244625",
    "lat": 31.16537,
    "limit": 99,
    "lng": 121.43588,
    "order_id": "412455651906244625",
    "priority": "vip",
    "time_window": {
      "begin_time": 8.0,
      "end_time": 23.98
    },
    "volume": 0.24,
    "weight": 0
  },
  {
    "action": "deliver",
    "address": "上海市市辖区徐汇区城区龙吟路501弄11号302室",
    "area_id": "N上海P0-21",
    "id": "121.45282_31.11282_412455651902050306",
    "lat": 31.11282,
    "limit": 99,
    "lng": 121.45282,
    "order_id": "412455651902050306",
    "priority": "vip",
    "time_window": {
      "begin_time": 8.0,
      "end_time": 23.98
    },
    "volume": 0.38,
    "weight": 0
  },
  {
    "action": "deliver",
    "address": "上海市市辖区徐汇区凌云路街道嘉川路梅陇五村70号1602室",
    "area_id": "N上海P0-21",
    "id": "121.42118_31.13599_412455651906244620",
    "lat": 31.13599,
    "limit": 99,
    "lng": 121.42118,
    "order_id": "412455651906244620",
    "priority": "vip",
    "time_window": {
      "begin_time": 8.0,
      "end_time": 23.98
    },
    "volume": 0.53,
    "weight": 0
  },
  {
    "action": "deliver",
    "address": "上海市市辖区闵行区颛桥镇光中路133弄99号5号楼海创汇221室",
    "area_id": "N上海P0-26",
    "id": "121.39534_31.07224_412455651902050312",
    "lat": 31.07224,
    "limit": 99,
    "lng": 121.39534,
    "order_id": "412455651902050312",
    "priority": "vip",
    "time_window": {
      "begin_time": 8.0,
      "end_time": 23.98
    },
    "volume": 2.6,
    "weight": 0
  },
  {
    "action": "deliver",
    "address": "上海市市辖区闵行区元江路4440号",
    "area_id": "N上海P0-26",
    "id": "121.38214_31.04409_412346477641814021",
    "lat": 31.04409,
    "limit": 99,
    "lng": 121.38214,
    "order_id": "412346477641814021",
    "priority": "vip",
    "time_window": {
      "begin_time": 8.0,
      "end_time": 23.98
    },
    "volume": 0.25,
    "weight": 0
  },
  {
    "action": "deliver",
    "address": "上海市市辖区闵行区莘庄工业区华宁路4999号",
    "area_id": "N上海P0-26",
    "id": "121.36746_31.07625_412455651902050340",
    "lat": 31.07625,
    "limit": 99,
    "lng": 121.36746,
    "order_id": "412455651902050340",
    "priority": "vip",
    "time_window": {
      "begin_time": 8.0,
      "end_time": 23.98
    },
    "volume": 0.05,
    "weight": 0
  },
  {
    "action": "deliver",
    "address": "上海市市辖区闵行区莘庄工业区申富路888号东门",
    "area_id": "N上海P0-26",
    "id": "121.36826_31.07758_412091397277569029",
    "lat": 31.07758,
    "limit": 99,
    "lng": 121.36826,
    "order_id": "412091397277569029",
    "priority": "vip",
    "time_window": {
      "begin_time": 8.0,
      "end_time": 23.98
    },
    "volume": 0.08,
    "weight": 0
  },
  {
    "action": "deliver",
    "address": "上海市市辖区闵行区 颛桥镇 颛兴路245弄颛溪五村83号501",
    "area_id": "N上海P0-26",
    "id": "121.39608_31.06625_412091397302734853",
    "lat": 31.06625,
    "limit": 99,
    "lng": 121.39608,
    "order_id": "412091397302734853",
    "priority": "vip",
    "time_window": {
      "begin_time": 8.0,
      "end_time": 23.98
    },
    "volume": 0.26,
    "weight": 0
  },
  {
    "action": "deliver",
    "address": "上海市市辖区闵行区莘庄工业区华宁路4999号",
    "area_id": "N上海P0-26",
    "id": "121.36746_31.07625_412455651906244608",
    "lat": 31.07625,
    "limit": 99,
    "lng": 121.36746,
    "order_id": "412455651906244608",
    "priority": "vip",
    "time_window": {
      "begin_time": 8.0,
      "end_time": 23.98
    },
    "volume": 0.24,
    "weight": 0
  },
  {
    "action": "deliver",
    "address": "上海市市辖区闵行区北横沙河路518号",
    "area_id": "N上海P0-26",
    "id": "121.36739_31.05166_412455651910438939",
    "lat": 31.05166,
    "limit": 99,
    "lng": 121.36739,
    "order_id": "412455651910438939",
    "priority": "vip",
    "time_window": {
      "begin_time": 8.0,
      "end_time": 23.98
    },
    "volume": 1.2,
    "weight": 0
  },
  {
    "action": "deliver",
    "address": "上海市市辖区青浦区？华新镇？尚泰路58弄9号1103室",
    "area_id": "N上海P0-15",
    "id": "121.23952_31.18254_412455651902050317",
    "lat": 31.18254,
    "limit": 99,
    "lng": 121.23952,
    "order_id": "412455651902050317",
    "priority": "vip",
    "time_window": {
      "begin_time": 8.0,
      "end_time": 23.98
    },
    "volume": 0.26,
    "weight": 0
  },
  {
    "action": "deliver",
    "address": "上海市市辖区青浦区上海上海市青浦区徐泾镇诸陆西路1088号 万科·天空之城·海之洲一期5号楼502",
    "area_id": "N上海P0-15",
    "id": "121.25376_31.17718_412455651897856009",
    "lat": 31.17718,
    "limit": 99,
    "lng": 121.25376,
    "order_id": "412455651897856009",
    "priority": "vip",
    "time_window": {
      "begin_time": 8.0,
      "end_time": 23.98
    },
    "volume": 0.1,
    "weight": 0
  },
  {
    "action": "deliver",
    "address": "上海市市辖区青浦区 徐泾镇徐南路678弄76号",
    "area_id": "N上海P0-15",
    "id": "121.30508_31.15714_412455651910438929",
    "lat": 31.15714,
    "limit": 99,
    "lng": 121.30508,
    "order_id": "412455651910438929",
    "priority": "vip",
    "time_window": {
      "begin_time": 8.0,
      "end_time": 23.98
    },
    "volume": 0.96,
    "weight": 0
  },
  {
    "action": "deliver",
    "address": "上海市市辖区青浦区徐泾镇路340弄9号楼202室",
    "area_id": "N上海P0-15",
    "id": "121.27236_31.17309_412455651906244636",
    "lat": 31.17309,
    "limit": 99,
    "lng": 121.27236,
    "order_id": "412455651906244636",
    "priority": "vip",
    "time_window": {
      "begin_time": 8.0,
      "end_time": 23.98
    },
    "volume": 2.0,
    "weight": 0
  },
  {
    "action": "deliver",
    "address": "上海市市辖区闵行区联友路369号",
    "area_id": "N上海P0-15",
    "id": "121.27444_31.21542_412455651906244630",
    "lat": 31.21542,
    "limit": 99,
    "lng": 121.27444,
    "order_id": "412455651906244630",
    "priority": "vip",
    "time_window": {
      "begin_time": 8.0,
      "end_time": 23.98
    },
    "volume": 0.1,
    "weight": 0
  },
  {
    "action": "deliver",
    "address": "上海市市辖区青浦区上海 上海市 青浦区 徐泾镇明珠家园3区明珠路明珠家园3区316号1楼",
    "area_id": "N上海P0-15",
    "id": "121.25673_31.19648_412455651906244622",
    "lat": 31.19648,
    "limit": 99,
    "lng": 121.25673,
    "order_id": "412455651906244622",
    "priority": "vip",
    "time_window": {
      "begin_time": 8.0,
      "end_time": 23.98
    },
    "volume": 0.3,
    "weight": 0
  },
  {
    "action": "deliver",
    "address": "上海市市辖区青浦区徐泾镇徐祥路199号",
    "area_id": "N上海P0-15",
    "id": "121.26461_31.19546_412455651914633216",
    "lat": 31.19546,
    "limit": 99,
    "lng": 121.26461,
    "order_id": "412455651914633216",
    "priority": "vip",
    "time_window": {
      "begin_time": 8.0,
      "end_time": 23.98
    },
    "volume": 0.35,
    "weight": 0
  },
  {
    "action": "deliver",
    "address": "上海市市辖区松江区沪亭北路199弄九亭中心3号楼1217室",
    "area_id": "N上海P0-16",
    "id": "121.32002_31.13926_412455651902050310",
    "lat": 31.13926,
    "limit": 99,
    "lng": 121.32002,
    "order_id": "412455651902050310",
    "priority": "vip",
    "time_window": {
      "begin_time": 8.0,
      "end_time": 23.98
    },
    "volume": 0.23,
    "weight": 0
  },
  {
    "action": "deliver",
    "address": "上海市市辖区松江区泗泾镇泗洋路518弄金地自在城2期18号501",
    "area_id": "N上海P0-16",
    "id": "121.25106_31.12548_412455651906244645",
    "lat": 31.12548,
    "limit": 99,
    "lng": 121.25106,
    "order_id": "412455651906244645",
    "priority": "vip",
    "time_window": {
      "begin_time": 8.0,
      "end_time": 23.98
    },
    "volume": 0.1,
    "weight": 0
  },
  {
    "action": "deliver",
    "address": "上海市市辖区松江区上海松江区九亭镇涞寅路658弄24栋2604",
    "area_id": "N上海P0-16",
    "id": "121.31201_31.14572_412455651906244634",
    "lat": 31.14572,
    "limit": 99,
    "lng": 121.31201,
    "order_id": "412455651906244634",
    "priority": "vip",
    "time_window": {
      "begin_time": 8.0,
      "end_time": 23.98
    },
    "volume": 0.32,
    "weight": 0
  },
  {
    "action": "deliver",
    "address": "上海市市辖区松江区九泾路959号",
    "area_id": "N上海P0-16",
    "id": "121.28792_31.14371_412455651906244642",
    "lat": 31.14371,
    "limit": 99,
    "lng": 121.28792,
    "order_id": "412455651906244642",
    "priority": "vip",
    "time_window": {
      "begin_time": 8.0,
      "end_time": 23.98
    },
    "volume": 1.6,
    "weight": 0
  },
  {
    "action": "deliver",
    "address": "上海市市辖区松江区上海上海市松江区泗泾镇佘月路18弄《宝地景庭》4号6层602室",
    "area_id": "N上海P0-16",
    "id": "121.26022_31.11722_412091397281763333",
    "lat": 31.11722,
    "limit": 99,
    "lng": 121.26022,
    "order_id": "412091397281763333",
    "priority": "vip",
    "time_window": {
      "begin_time": 8.0,
      "end_time": 23.98
    },
    "volume": 0.34,
    "weight": 0
  },
  {
    "action": "deliver",
    "address": "上海市市辖区闵行区涞亭北路705弄上海汉仁置业集团",
    "area_id": "N上海P0-16",
    "id": "121.32398_31.15754_412455651910438918",
    "lat": 31.15754,
    "limit": 99,
    "lng": 121.32398,
    "order_id": "412455651910438918",
    "priority": "vip",
    "time_window": {
      "begin_time": 8.0,
      "end_time": 23.98
    },
    "volume": 1.5,
    "weight": 0
  },
  {
    "action": "deliver",
    "address": "上海市市辖区松江区泗泾江川二村",
    "area_id": "N上海P0-16",
    "id": "121.27134_31.11405_412091397294346245",
    "lat": 31.11405,
    "limit": 99,
    "lng": 121.27134,
    "order_id": "412091397294346245",
    "priority": "vip",
    "time_window": {
      "begin_time": 8.0,
      "end_time": 23.98
    },
    "volume": 0.24,
    "weight": 0
  },
  {
    "action": "deliver",
    "address": "上海市市辖区松江区泗泾镇塘和家园德悦苑4号楼1704室",
    "area_id": "N上海P0-16",
    "id": "121.25277_31.09872_412455651910438922",
    "lat": 31.09872,
    "limit": 99,
    "lng": 121.25277,
    "order_id": "412455651910438922",
    "priority": "vip",
    "time_window": {
      "begin_time": 8.0,
      "end_time": 23.98
    },
    "volume": 0.3,
    "weight": 0
  },
  {
    "action": "deliver",
    "address": "上海市市辖区闵行区江川路街道 江川路街道瑞丽路386弄10号702室",
    "area_id": "N上海P0-27",
    "id": "121.40688_31.00892_412455651910438927",
    "lat": 31.00892,
    "limit": 99,
    "lng": 121.40688,
    "order_id": "412455651910438927",
    "priority": "vip",
    "time_window": {
      "begin_time": 8.0,
      "end_time": 23.98
    },
    "volume": 1.01,
    "weight": 0
  },
  {
    "action": "deliver",
    "address": "上海市市辖区闵行区区虹梅南路4916弄18号",
    "area_id": "N上海P0-24",
    "id": "121.45140_31.05127_412455651914633221",
    "lat": 31.05127,
    "limit": 99,
    "lng": 121.45140,
    "order_id": "412455651914633221",
    "priority": "vip",
    "time_window": {
      "begin_time": 8.0,
      "end_time": 23.98
    },
    "volume": 0.69,
    "weight": 0
  },
  {
    "action": "deliver",
    "address": "上海市市辖区闵行区虹梅南路3888号吴中汽配城一期",
    "area_id": "N上海P0-24",
    "id": "121.44181_31.07694_412346477641814019",
    "lat": 31.07694,
    "limit": 99,
    "lng": 121.44181,
    "order_id": "412346477641814019",
    "priority": "vip",
    "time_window": {
      "begin_time": 8.0,
      "end_time": 23.98
    },
    "volume": 0.5,
    "weight": 0
  },
  {
    "action": "deliver",
    "address": "上海市市辖区闵行区双柏路1288号景中生态科技园G栋1层 ",
    "area_id": "N上海P0-24",
    "id": "121.43297_31.08856_412346477641814020",
    "lat": 31.08856,
    "limit": 99,
    "lng": 121.43297,
    "order_id": "412346477641814020",
    "priority": "vip",
    "time_window": {
      "begin_time": 8.0,
      "end_time": 23.98
    },
    "volume": 0.02,
    "weight": 0
  },
  {
    "action": "deliver",
    "address": "上海市市辖区闵行区金汇南路301弄23号101室",
    "area_id": "N上海P0-13",
    "id": "121.37761_31.16822_412455651897856001",
    "lat": 31.16822,
    "limit": 99,
    "lng": 121.37761,
    "order_id": "412455651897856001",
    "priority": "vip",
    "time_window": {
      "begin_time": 8.0,
      "end_time": 23.98
    },
    "volume": 1.38,
    "weight": 0
  },
  {
    "action": "deliver",
    "address": "上海市市辖区闵行区漕宝路1467弄静安新城10区9号101",
    "area_id": "N上海P0-13",
    "id": "121.37914_31.16070_412455651902050315",
    "lat": 31.16070,
    "limit": 99,
    "lng": 121.37914,
    "order_id": "412455651902050315",
    "priority": "vip",
    "time_window": {
      "begin_time": 8.0,
      "end_time": 23.98
    },
    "volume": 0.18,
    "weight": 0
  },
  {
    "action": "deliver",
    "address": "上海市市辖区闵行区上海 上海市 闵行区 古美街道古龙路300弄56号",
    "area_id": "N上海P0-13",
    "id": "121.40171_31.15116_412455651914633219",
    "lat": 31.15116,
    "limit": 99,
    "lng": 121.40171,
    "order_id": "412455651914633219",
    "priority": "vip",
    "time_window": {
      "begin_time": 8.0,
      "end_time": 23.98
    },
    "volume": 0.43,
    "weight": 0
  },
  {
    "action": "deliver",
    "address": "上海市市辖区闵行区虹泉路1000号井亭大厦B座802D",
    "area_id": "N上海P0-13",
    "id": "121.37498_31.17046_412455651910438941",
    "lat": 31.17046,
    "limit": 99,
    "lng": 121.37498,
    "order_id": "412455651910438941",
    "priority": "vip",
    "time_window": {
      "begin_time": 8.0,
      "end_time": 23.98
    },
    "volume": 0.2,
    "weight": 0
  },
  {
    "action": "deliver",
    "address": "上海市市辖区闵行区古美街道古美路377弄4号1402室 ",
    "area_id": "N上海P0-13",
    "id": "121.40588_31.14021_412455651910438951",
    "lat": 31.14021,
    "limit": 99,
    "lng": 121.40588,
    "order_id": "412455651910438951",
    "priority": "vip",
    "time_window": {
      "begin_time": 8.0,
      "end_time": 23.98
    },
    "volume": 0.28,
    "weight": 0
  },
  {
    "action": "deliver",
    "address": "上海市市辖区闵行区上海市闵行区七宝镇新镇路1060号三佳花苑6号楼404",
    "area_id": "N上海P0-13",
    "id": "121.36043_31.15439_412455651897856006",
    "lat": 31.15439,
    "limit": 99,
    "lng": 121.36043,
    "order_id": "412455651897856006",
    "priority": "vip",
    "time_window": {
      "begin_time": 8.0,
      "end_time": 23.98
    },
    "volume": 0.26,
    "weight": 0
  },
  {
    "action": "deliver",
    "address": "上海市市辖区闵行区上海闵行区七宝镇阳光乾城苑42号",
    "area_id": "N上海P0-13",
    "id": "121.37071_31.15532_412455651910438921",
    "lat": 31.15532,
    "limit": 99,
    "lng": 121.37071,
    "order_id": "412455651910438921",
    "priority": "vip",
    "time_window": {
      "begin_time": 8.0,
      "end_time": 23.98
    },
    "volume": 0.43,
    "weight": 0
  },
  {
    "action": "deliver",
    "address": "上海市市辖区闵行区上海 上海市 闵行区 古美街道万源路东兰路平南二村25号603",
    "area_id": "N上海P0-13",
    "id": "121.39272_31.15320_412455651906244611",
    "lat": 31.15320,
    "limit": 99,
    "lng": 121.39272,
    "order_id": "412455651906244611",
    "priority": "vip",
    "time_window": {
      "begin_time": 8.0,
      "end_time": 23.98
    },
    "volume": 0.22,
    "weight": 0
  },
  {
    "action": "deliver",
    "address": "上海市市辖区闵行区虹桥镇金汇路528号虹桥古玩市场4号别墅皓空间一楼",
    "area_id": "N上海P0-13",
    "id": "121.37438_31.18099_412455651910438925",
    "lat": 31.18099,
    "limit": 99,
    "lng": 121.37438,
    "order_id": "412455651910438925",
    "priority": "vip",
    "time_window": {
      "begin_time": 8.0,
      "end_time": 23.98
    },
    "volume": 0.18,
    "weight": 0
  },
  {
    "action": "deliver",
    "address": "上海市市辖区松江区上海市上海市松江区九亭镇盛富路180弄2号102室",
    "area_id": "N上海P0-14",
    "id": "121.31507_31.10611_412455651914633223",
    "lat": 31.10611,
    "limit": 99,
    "lng": 121.31507,
    "order_id": "412455651914633223",
    "priority": "down_transfer",
    "time_window": {
      "begin_time": 8.0,
      "end_time": 23.98
    },
    "volume": 0.01,
    "weight": 0
  },
  {
    "action": "deliver",
    "address": "上海市市辖区闵行区莘松路958弄大浪湾道61号1003室",
    "area_id": "N上海P0-14",
    "id": "121.34937_31.10701_412455651897856017",
    "lat": 31.10701,
    "limit": 99,
    "lng": 121.34937,
    "order_id": "412455651897856017",
    "priority": "vip",
    "time_window": {
      "begin_time": 8.0,
      "end_time": 23.98
    },
    "volume": 0.6,
    "weight": 0
  },
  {
    "action": "deliver",
    "address": "上海市市辖区松江区上海市上海市松江区九亭镇盛富路180弄2号102室",
    "area_id": "N上海P0-14",
    "id": "121.31507_31.10611_412455651910438945",
    "lat": 31.10611,
    "limit": 99,
    "lng": 121.31507,
    "order_id": "412455651910438945",
    "priority": "down_transfer",
    "time_window": {
      "begin_time": 8.0,
      "end_time": 23.98
    },
    "volume": 0.1,
    "weight": 0
  },
  {
    "action": "deliver",
    "address": "上海市市辖区松江区上海市上海市松江区九亭镇盛富路180弄2号102室",
    "area_id": "N上海P0-14",
    "id": "121.31507_31.10611_412091397264986117",
    "lat": 31.10611,
    "limit": 99,
    "lng": 121.31507,
    "order_id": "412091397264986117",
    "priority": "down_transfer",
    "time_window": {
      "begin_time": 8.0,
      "end_time": 23.98
    },
    "volume": 0.19,
    "weight": 0
  },
  {
    "action": "deliver",
    "address": "上海市市辖区松江区上海上海市松江区九亭镇沪亭南路299弄象屿都城82号102",
    "area_id": "N上海P0-14",
    "id": "121.33151_31.12461_412455651902050318",
    "lat": 31.12461,
    "limit": 99,
    "lng": 121.33151,
    "order_id": "412455651902050318",
    "priority": "vip",
    "time_window": {
      "begin_time": 8.0,
      "end_time": 23.98
    },
    "volume": 0.19,
    "weight": 0
  },
  {
    "action": "deliver",
    "address": "上海市市辖区松江区上海 上海市 松江区 九亭镇 涞亭南路599弄8号",
    "area_id": "N上海P0-14",
    "id": "121.34159_31.12884_412455651897856000",
    "lat": 31.12884,
    "limit": 99,
    "lng": 121.34159,
    "order_id": "412455651897856000",
    "priority": "vip",
    "time_window": {
      "begin_time": 8.0,
      "end_time": 23.98
    },
    "volume": 0.64,
    "weight": 0
  },
  {
    "action": "deliver",
    "address": "上海市市辖区松江区上海市上海市松江区九亭镇盛富路180弄2号102室",
    "area_id": "N上海P0-14",
    "id": "121.31507_31.10611_412455651902050330",
    "lat": 31.10611,
    "limit": 99,
    "lng": 121.31507,
    "order_id": "412455651902050330",
    "priority": "down_transfer",
    "time_window": {
      "begin_time": 8.0,
      "end_time": 23.98
    },
    "volume": 0.5,
    "weight": 0
  },
  {
    "action": "deliver",
    "address": "上海市市辖区松江区上海市上海市松江区九亭镇盛富路180弄2号102室",
    "area_id": "N上海P0-14",
    "id": "121.31507_31.10611_412455651902050329",
    "lat": 31.10611,
    "limit": 99,
    "lng": 121.31507,
    "order_id": "412455651902050329",
    "priority": "down_transfer",
    "time_window": {
      "begin_time": 8.0,
      "end_time": 23.98
    },
    "volume": 0.4,
    "weight": 0
  },
  {
    "action": "deliver",
    "address": "上海市市辖区松江区上海市上海市松江区九亭镇盛富路180弄2号102室",
    "area_id": "N上海P0-14",
    "id": "121.31507_31.10611_412455651906244639",
    "lat": 31.10611,
    "limit": 99,
    "lng": 121.31507,
    "order_id": "412455651906244639",
    "priority": "down_transfer",
    "time_window": {
      "begin_time": 8.0,
      "end_time": 23.98
    },
    "volume": 0.01,
    "weight": 0
  },
  {
    "action": "deliver",
    "address": "上海市市辖区闵行区上海市闵行区北松公路176号",
    "area_id": "N上海P0-25",
    "id": "121.40516_31.04187_412455651906244627",
    "lat": 31.04187,
    "limit": 99,
    "lng": 121.40516,
    "order_id": "412455651906244627",
    "priority": "down_transfer",
    "time_window": {
      "begin_time": 8.0,
      "end_time": 23.98
    },
    "volume": 0.76,
    "weight": 0
  },
  {
    "action": "deliver",
    "address": "上海市市辖区闵行区上海 上海市 闵行区 吴泾镇紫海路170号",
    "area_id": "N上海P0-25",
    "id": "121.45736_31.02400_412455651910438912",
    "lat": 31.02400,
    "limit": 99,
    "lng": 121.45736,
    "order_id": "412455651910438912",
    "priority": "vip",
    "time_window": {
      "begin_time": 8.0,
      "end_time": 23.98
    },
    "volume": 0.21,
    "weight": 0
  },
  {
    "action": "deliver",
    "address": "上海市市辖区闵行区上海市闵行区北松公路176号",
    "area_id": "N上海P0-25",
    "id": "121.40516_31.04187_412455651910438944",
    "lat": 31.04187,
    "limit": 99,
    "lng": 121.40516,
    "order_id": "412455651910438944",
    "priority": "down_transfer",
    "time_window": {
      "begin_time": 8.0,
      "end_time": 23.98
    },
    "volume": 0.22,
    "weight": 0
  },
  {
    "action": "deliver",
    "address": "上海市市辖区闵行区金平路558弄289号",
    "area_id": "N上海P0-25",
    "id": "121.40645_31.01665_412455651897856005",
    "lat": 31.01665,
    "limit": 99,
    "lng": 121.40645,
    "order_id": "412455651897856005",
    "priority": "vip",
    "time_window": {
      "begin_time": 8.0,
      "end_time": 23.98
    },
    "volume": 0.57,
    "weight": 0
  },
  {
    "action": "deliver",
    "address": "上海市市辖区闵行区闵行区江川路街道沧源路588弄48号302室",
    "area_id": "N上海P0-25",
    "id": "121.42894_31.01430_412455651910438947",
    "lat": 31.01430,
    "limit": 99,
    "lng": 121.42894,
    "order_id": "412455651910438947",
    "priority": "vip",
    "time_window": {
      "begin_time": 8.0,
      "end_time": 23.98
    },
    "volume": 0.28,
    "weight": 0
  },
  {
    "action": "deliver",
    "address": "上海市市辖区闵行区吴泾镇 尚义路428弄10号202室",
    "area_id": "N上海P0-25",
    "id": "121.45192_31.04605_412091397281763331",
    "lat": 31.04605,
    "limit": 99,
    "lng": 121.45192,
    "order_id": "412091397281763331",
    "priority": "vip",
    "time_window": {
      "begin_time": 8.0,
      "end_time": 23.98
    },
    "volume": 0.35,
    "weight": 0
  },
  {
    "action": "deliver",
    "address": "上海市市辖区闵行区都市路399弄559号（靠近金阳路）",
    "area_id": "N上海P0-25",
    "id": "121.41719_31.03679_412346477650202643",
    "lat": 31.03679,
    "limit": 99,
    "lng": 121.41719,
    "order_id": "412346477650202643",
    "priority": "vip",
    "time_window": {
      "begin_time": 8.0,
      "end_time": 23.98
    },
    "volume": 0.48,
    "weight": 0
  },
  {
    "action": "deliver",
    "address": "上海市市辖区闵行区江川路街道 鹤庆路411弄21号103",
    "area_id": "N上海P0-25",
    "id": "121.41413_31.00655_412455651906244613",
    "lat": 31.00655,
    "limit": 99,
    "lng": 121.41413,
    "order_id": "412455651906244613",
    "priority": "vip",
    "time_window": {
      "begin_time": 8.0,
      "end_time": 23.98
    },
    "volume": 0.26,
    "weight": 0
  },
  {
    "action": "deliver",
    "address": "上海市市辖区徐汇区漕河泾新兴技术开发区桂平路418号漕河泾国际孵化中心A座614室",
    "area_id": "N上海P0-17",
    "id": "121.40495_31.16469_412455651902050322",
    "lat": 31.16469,
    "limit": 99,
    "lng": 121.40495,
    "order_id": "412455651902050322",
    "priority": "vip",
    "time_window": {
      "begin_time": 8.0,
      "end_time": 23.98
    },
    "volume": 0.24,
    "weight": 0
  },
  {
    "action": "deliver",
    "address": "上海市市辖区徐汇区上海徐汇区城区桂平路88弄1号801室",
    "area_id": "N上海P0-17",
    "id": "121.41192_31.15004_412455651906244644",
    "lat": 31.15004,
    "limit": 99,
    "lng": 121.41192,
    "order_id": "412455651906244644",
    "priority": "vip",
    "time_window": {
      "begin_time": 8.0,
      "end_time": 23.98
    },
    "volume": 0.35,
    "weight": 0
  }
]